[{"number":1,"address":"Clarendon Row","banking":0,"bikestands":31,"name":"CLARENDON ROW","positionlat":53.3409,"positionlong":-6.2625,"last_update":1710187089000,"available_bikes":0,"available_bike_stands":31,"status":"OPEN"},{"number":2,"address":"Blessington Street","banking":0,"bikestands":20,"name":"BLESSINGTON STREET","positionlat":53.3568,"positionlong":-6.26814,"last_update":1710187621000,"available_bikes":5,"available_bike_stands":15,"status":"OPEN"},{"number":3,"address":"Bolton Street","banking":0,"bikestands":20,"name":"BOLTON STREET","positionlat":53.3512,"positionlong":-6.26986,"last_update":1710187256000,"available_bikes":5,"available_bike_stands":15,"status":"OPEN"},{"number":4,"address":"Greek Street","banking":0,"bikestands":20,"name":"GREEK STREET","positionlat":53.3469,"positionlong":-6.27298,"last_update":1710187119000,"available_bikes":2,"available_bike_stands":18,"status":"OPEN"},{"number":5,"address":"Charlemont Street","banking":0,"bikestands":40,"name":"CHARLEMONT PLACE","positionlat":53.3307,"positionlong":-6.26018,"last_update":1710187370000,"available_bikes":38,"available_bike_stands":2,"status":"OPEN"},{"number":6,"address":"Christchurch Place","banking":0,"bikestands":20,"name":"CHRISTCHURCH PLACE","positionlat":53.3434,"positionlong":-6.27012,"last_update":1710187608000,"available_bikes":2,"available_bike_stands":18,"status":"OPEN"},{"number":7,"address":"High Street","banking":0,"bikestands":29,"name":"HIGH STREET","positionlat":53.3436,"positionlong":-6.27507,"last_update":1710187565000,"available_bikes":0,"available_bike_stands":29,"status":"OPEN"},{"number":8,"address":"Custom House Quay","banking":0,"bikestands":30,"name":"CUSTOM HOUSE QUAY","positionlat":53.3479,"positionlong":-6.24805,"last_update":1710187231000,"available_bikes":25,"available_bike_stands":5,"status":"OPEN"},{"number":9,"address":"Exchequer Street","banking":0,"bikestands":24,"name":"EXCHEQUER STREET","positionlat":53.343,"positionlong":-6.26358,"last_update":1710187606000,"available_bikes":4,"available_bike_stands":20,"status":"OPEN"},{"number":10,"address":"Dame Street","banking":1,"bikestands":16,"name":"DAME STREET","positionlat":53.344,"positionlong":-6.2668,"last_update":1710187263000,"available_bikes":8,"available_bike_stands":8,"status":"OPEN"},{"number":11,"address":"Earlsfort Terrace","banking":0,"bikestands":30,"name":"EARLSFORT TERRACE","positionlat":53.3343,"positionlong":-6.2585,"last_update":1710187565000,"available_bikes":0,"available_bike_stands":30,"status":"OPEN"},{"number":12,"address":"Eccles Street","banking":0,"bikestands":20,"name":"ECCLES STREET","positionlat":53.3592,"positionlong":-6.26978,"last_update":1710187552000,"available_bikes":7,"available_bike_stands":13,"status":"OPEN"},{"number":13,"address":"Fitzwilliam Square West","banking":0,"bikestands":30,"name":"FITZWILLIAM SQUARE WEST","positionlat":53.3361,"positionlong":-6.25282,"last_update":1710187628000,"available_bikes":2,"available_bike_stands":28,"status":"OPEN"},{"number":14,"address":"Fownes Street Upper","banking":0,"bikestands":30,"name":"FOWNES STREET UPPER","positionlat":53.3446,"positionlong":-6.26337,"last_update":1710187148000,"available_bikes":21,"available_bike_stands":9,"status":"OPEN"},{"number":15,"address":"Hardwicke Street","banking":0,"bikestands":16,"name":"HARDWICKE STREET","positionlat":53.3555,"positionlong":-6.26442,"last_update":1710187665000,"available_bikes":2,"available_bike_stands":14,"status":"OPEN"},{"number":16,"address":"Georges Quay","banking":0,"bikestands":20,"name":"GEORGES QUAY","positionlat":53.3475,"positionlong":-6.25219,"last_update":1710187564000,"available_bikes":16,"available_bike_stands":4,"status":"OPEN"},{"number":17,"address":"Golden Lane","banking":0,"bikestands":20,"name":"GOLDEN LANE","positionlat":53.3408,"positionlong":-6.26773,"last_update":1710187570000,"available_bikes":2,"available_bike_stands":18,"status":"OPEN"},{"number":18,"address":"Grantham Street","banking":0,"bikestands":30,"name":"GRANTHAM STREET","positionlat":53.3341,"positionlong":-6.26544,"last_update":1710187552000,"available_bikes":19,"available_bike_stands":11,"status":"OPEN"},{"number":19,"address":"Herbert Place","banking":0,"bikestands":30,"name":"HERBERT PLACE","positionlat":53.3344,"positionlong":-6.24557,"last_update":1710187212000,"available_bikes":2,"available_bike_stands":28,"status":"OPEN"},{"number":20,"address":"James Street East","banking":0,"bikestands":30,"name":"JAMES STREET EAST","positionlat":53.3366,"positionlong":-6.24811,"last_update":1710187188000,"available_bikes":0,"available_bike_stands":30,"status":"OPEN"},{"number":21,"address":"Leinster Street South","banking":0,"bikestands":30,"name":"LEINSTER STREET SOUTH","positionlat":53.3422,"positionlong":-6.25449,"last_update":1710187575000,"available_bikes":5,"available_bike_stands":25,"status":"OPEN"},{"number":22,"address":"Townsend Street","banking":0,"bikestands":20,"name":"TOWNSEND STREET","positionlat":53.3459,"positionlong":-6.25461,"last_update":1710187378000,"available_bikes":19,"available_bike_stands":1,"status":"OPEN"},{"number":23,"address":"Custom House","banking":0,"bikestands":30,"name":"CUSTOM HOUSE","positionlat":53.3483,"positionlong":-6.25466,"last_update":1710187087000,"available_bikes":28,"available_bike_stands":2,"status":"OPEN"},{"number":24,"address":"Cathal Brugha Street","banking":0,"bikestands":20,"name":"CATHAL BRUGHA STREET","positionlat":53.3521,"positionlong":-6.26053,"last_update":1710187652000,"available_bikes":2,"available_bike_stands":18,"status":"OPEN"},{"number":25,"address":"Merrion Square East","banking":0,"bikestands":30,"name":"MERRION SQUARE EAST","positionlat":53.3394,"positionlong":-6.24655,"last_update":1710187154000,"available_bikes":1,"available_bike_stands":29,"status":"OPEN"},{"number":26,"address":"Merrion Square West","banking":1,"bikestands":20,"name":"MERRION SQUARE WEST","positionlat":53.3398,"positionlong":-6.25199,"last_update":1710187566000,"available_bikes":9,"available_bike_stands":11,"status":"OPEN"},{"number":27,"address":"Molesworth Street","banking":0,"bikestands":20,"name":"MOLESWORTH STREET","positionlat":53.3413,"positionlong":-6.25812,"last_update":1710187658000,"available_bikes":3,"available_bike_stands":17,"status":"OPEN"},{"number":28,"address":"Mountjoy Square West","banking":0,"bikestands":30,"name":"MOUNTJOY SQUARE WEST","positionlat":53.3563,"positionlong":-6.25859,"last_update":1710187129000,"available_bikes":0,"available_bike_stands":30,"status":"OPEN"},{"number":29,"address":"Ormond Quay Upper","banking":0,"bikestands":29,"name":"ORMOND QUAY UPPER","positionlat":53.3461,"positionlong":-6.268,"last_update":1710187316000,"available_bikes":18,"available_bike_stands":11,"status":"OPEN"},{"number":30,"address":"Parnell Square North","banking":0,"bikestands":20,"name":"PARNELL SQUARE NORTH","positionlat":53.3537,"positionlong":-6.2653,"last_update":1710187316000,"available_bikes":1,"available_bike_stands":19,"status":"OPEN"},{"number":31,"address":"Parnell Street","banking":0,"bikestands":20,"name":"PARNELL STREET","positionlat":53.3509,"positionlong":-6.26512,"last_update":1710187612000,"available_bikes":0,"available_bike_stands":19,"status":"OPEN"},{"number":32,"address":"Pearse Street","banking":0,"bikestands":30,"name":"PEARSE STREET","positionlat":53.3443,"positionlong":-6.25043,"last_update":1710187333000,"available_bikes":23,"available_bike_stands":7,"status":"OPEN"},{"number":33,"address":"Princes Street \/ O'Connell Street","banking":1,"bikestands":23,"name":"PRINCES STREET \/ O'CONNELL STREET","positionlat":53.349,"positionlong":-6.26031,"last_update":1710187198000,"available_bikes":15,"available_bike_stands":8,"status":"OPEN"},{"number":34,"address":"Portobello Harbour","banking":0,"bikestands":30,"name":"PORTOBELLO HARBOUR","positionlat":53.3304,"positionlong":-6.26516,"last_update":1710187471000,"available_bikes":27,"available_bike_stands":3,"status":"OPEN"},{"number":35,"address":"Smithfield","banking":0,"bikestands":30,"name":"SMITHFIELD","positionlat":53.3477,"positionlong":-6.27821,"last_update":1710187409000,"available_bikes":18,"available_bike_stands":12,"status":"OPEN"},{"number":36,"address":"St. Stephen's Green East","banking":0,"bikestands":40,"name":"ST. STEPHEN'S GREEN EAST","positionlat":53.3378,"positionlong":-6.25603,"last_update":1710187579000,"available_bikes":0,"available_bike_stands":40,"status":"OPEN"},{"number":37,"address":"St. Stephen's Green South","banking":1,"bikestands":30,"name":"ST. STEPHEN'S GREEN SOUTH","positionlat":53.3375,"positionlong":-6.26199,"last_update":1710187593000,"available_bikes":0,"available_bike_stands":30,"status":"OPEN"},{"number":38,"address":"Talbot Street","banking":0,"bikestands":40,"name":"TALBOT STREET","positionlat":53.351,"positionlong":-6.25294,"last_update":1710187172000,"available_bikes":12,"available_bike_stands":28,"status":"OPEN"},{"number":39,"address":"Wilton Terrace","banking":0,"bikestands":20,"name":"WILTON TERRACE","positionlat":53.3324,"positionlong":-6.25272,"last_update":1710187643000,"available_bikes":0,"available_bike_stands":20,"status":"OPEN"},{"number":40,"address":"Jervis Street","banking":0,"bikestands":21,"name":"JERVIS STREET","positionlat":53.3483,"positionlong":-6.26665,"last_update":1710187329000,"available_bikes":1,"available_bike_stands":20,"status":"OPEN"},{"number":41,"address":"Harcourt Terrace","banking":0,"bikestands":20,"name":"HARCOURT TERRACE","positionlat":53.3328,"positionlong":-6.25794,"last_update":1710187580000,"available_bikes":10,"available_bike_stands":10,"status":"OPEN"},{"number":42,"address":"Smithfield North","banking":0,"bikestands":30,"name":"SMITHFIELD NORTH","positionlat":53.3496,"positionlong":-6.2782,"last_update":1710187258000,"available_bikes":28,"available_bike_stands":0,"status":"OPEN"},{"number":43,"address":"Portobello Road","banking":0,"bikestands":30,"name":"PORTOBELLO ROAD","positionlat":53.3301,"positionlong":-6.26804,"last_update":1710187276000,"available_bikes":25,"available_bike_stands":5,"status":"OPEN"},{"number":44,"address":"Upper Sherrard Street","banking":0,"bikestands":30,"name":"UPPER SHERRARD STREET","positionlat":53.3584,"positionlong":-6.26064,"last_update":1710187665000,"available_bikes":6,"available_bike_stands":24,"status":"OPEN"},{"number":45,"address":"Deverell Place","banking":0,"bikestands":30,"name":"DEVERELL PLACE","positionlat":53.3515,"positionlong":-6.25527,"last_update":1710187560000,"available_bikes":20,"available_bike_stands":10,"status":"OPEN"},{"number":47,"address":"Herbert Street","banking":0,"bikestands":40,"name":"HERBERT STREET","positionlat":53.3357,"positionlong":-6.24551,"last_update":1710187632000,"available_bikes":1,"available_bike_stands":39,"status":"OPEN"},{"number":48,"address":"Excise Walk","banking":0,"bikestands":40,"name":"EXCISE WALK","positionlat":53.3478,"positionlong":-6.24424,"last_update":1710187658000,"available_bikes":22,"available_bike_stands":18,"status":"OPEN"},{"number":49,"address":"Guild Street","banking":0,"bikestands":40,"name":"GUILD STREET","positionlat":53.3479,"positionlong":-6.24093,"last_update":1710187222000,"available_bikes":17,"available_bike_stands":23,"status":"OPEN"},{"number":50,"address":"George's Lane","banking":0,"bikestands":40,"name":"GEORGES LANE","positionlat":53.3502,"positionlong":-6.2797,"last_update":1710187384000,"available_bikes":29,"available_bike_stands":11,"status":"OPEN"},{"number":51,"address":"York Street West","banking":0,"bikestands":40,"name":"YORK STREET WEST","positionlat":53.3393,"positionlong":-6.2647,"last_update":1710187508000,"available_bikes":0,"available_bike_stands":40,"status":"OPEN"},{"number":52,"address":"York Street East","banking":0,"bikestands":32,"name":"YORK STREET EAST","positionlat":53.3388,"positionlong":-6.262,"last_update":1709969362000,"available_bikes":4,"available_bike_stands":28,"status":"OPEN"},{"number":53,"address":"Newman House","banking":0,"bikestands":40,"name":"NEWMAN HOUSE","positionlat":53.3371,"positionlong":-6.26059,"last_update":1710187600000,"available_bikes":0,"available_bike_stands":40,"status":"OPEN"},{"number":54,"address":"Clonmel Street","banking":0,"bikestands":33,"name":"CLONMEL STREET","positionlat":53.336,"positionlong":-6.26298,"last_update":1710187126000,"available_bikes":7,"available_bike_stands":26,"status":"OPEN"},{"number":55,"address":"Hatch Street","banking":0,"bikestands":36,"name":"HATCH STREET","positionlat":53.334,"positionlong":-6.26071,"last_update":1710187135000,"available_bikes":0,"available_bike_stands":36,"status":"OPEN"},{"number":56,"address":"Mount Street Lower","banking":0,"bikestands":40,"name":"MOUNT STREET LOWER","positionlat":53.338,"positionlong":-6.24153,"last_update":1710187605000,"available_bikes":6,"available_bike_stands":34,"status":"OPEN"},{"number":57,"address":"Grattan Street","banking":0,"bikestands":23,"name":"GRATTAN STREET","positionlat":53.3396,"positionlong":-6.24378,"last_update":1710187655000,"available_bikes":8,"available_bike_stands":15,"status":"OPEN"},{"number":58,"address":"Sir Patrick's Dun","banking":0,"bikestands":40,"name":"SIR PATRICK DUN'S","positionlat":53.3392,"positionlong":-6.24064,"last_update":1710187190000,"available_bikes":2,"available_bike_stands":38,"status":"OPEN"},{"number":59,"address":"Denmark Street Great","banking":0,"bikestands":20,"name":"DENMARK STREET GREAT","positionlat":53.3556,"positionlong":-6.2614,"last_update":1710187381000,"available_bikes":1,"available_bike_stands":19,"status":"OPEN"},{"number":60,"address":"North Circular Road","banking":0,"bikestands":30,"name":"NORTH CIRCULAR ROAD","positionlat":53.3596,"positionlong":-6.26035,"last_update":1710187236000,"available_bikes":11,"available_bike_stands":19,"status":"OPEN"},{"number":61,"address":"Hardwicke Place","banking":0,"bikestands":25,"name":"HARDWICKE PLACE","positionlat":53.357,"positionlong":-6.26323,"last_update":1710187533000,"available_bikes":0,"available_bike_stands":25,"status":"OPEN"},{"number":62,"address":"Lime Street","banking":0,"bikestands":40,"name":"LIME STREET","positionlat":53.346,"positionlong":-6.24358,"last_update":1710187629000,"available_bikes":16,"available_bike_stands":24,"status":"OPEN"},{"number":63,"address":"Fenian Street","banking":0,"bikestands":35,"name":"FENIAN STREET","positionlat":53.3414,"positionlong":-6.24672,"last_update":1710187099000,"available_bikes":29,"available_bike_stands":6,"status":"OPEN"},{"number":64,"address":"Sandwith Street","banking":0,"bikestands":40,"name":"SANDWITH STREET","positionlat":53.3452,"positionlong":-6.24716,"last_update":1710187620000,"available_bikes":35,"available_bike_stands":5,"status":"OPEN"},{"number":65,"address":"Convention Centre","banking":1,"bikestands":40,"name":"CONVENTION CENTRE","positionlat":53.3474,"positionlong":-6.23852,"last_update":1710187286000,"available_bikes":1,"available_bike_stands":39,"status":"OPEN"},{"number":66,"address":"New Central Bank","banking":0,"bikestands":40,"name":"NEW CENTRAL BANK","positionlat":53.3471,"positionlong":-6.23475,"last_update":1710187649000,"available_bikes":3,"available_bike_stands":37,"status":"OPEN"},{"number":67,"address":"The Point","banking":0,"bikestands":40,"name":"THE POINT","positionlat":53.3469,"positionlong":-6.23085,"last_update":1710187648000,"available_bikes":7,"available_bike_stands":33,"status":"OPEN"},{"number":68,"address":"Hanover Quay","banking":0,"bikestands":40,"name":"HANOVER QUAY","positionlat":53.3441,"positionlong":-6.23715,"last_update":1710187667000,"available_bikes":2,"available_bike_stands":38,"status":"OPEN"},{"number":69,"address":"Grand Canal Dock","banking":0,"bikestands":40,"name":"GRAND CANAL DOCK","positionlat":53.3426,"positionlong":-6.2387,"last_update":1710187623000,"available_bikes":1,"available_bike_stands":39,"status":"OPEN"},{"number":71,"address":"Kevin Street","banking":0,"bikestands":40,"name":"KEVIN STREET","positionlat":53.3378,"positionlong":-6.2677,"last_update":1710187553000,"available_bikes":12,"available_bike_stands":28,"status":"OPEN"},{"number":72,"address":"John Street West","banking":0,"bikestands":31,"name":"JOHN STREET WEST","positionlat":53.3431,"positionlong":-6.27717,"last_update":1710187156000,"available_bikes":2,"available_bike_stands":29,"status":"OPEN"},{"number":73,"address":"Francis Street","banking":0,"bikestands":30,"name":"FRANCIS STREET","positionlat":53.3421,"positionlong":-6.27523,"last_update":1710187645000,"available_bikes":4,"available_bike_stands":26,"status":"OPEN"},{"number":74,"address":"Oliver Bond Street","banking":0,"bikestands":30,"name":"OLIVER BOND STREET","positionlat":53.3439,"positionlong":-6.28053,"last_update":1710187114000,"available_bikes":3,"available_bike_stands":27,"status":"OPEN"},{"number":75,"address":"James Street","banking":0,"bikestands":40,"name":"JAMES STREET","positionlat":53.3435,"positionlong":-6.28741,"last_update":1710187665000,"available_bikes":27,"available_bike_stands":13,"status":"OPEN"},{"number":76,"address":"Market Street South","banking":0,"bikestands":38,"name":"MARKET STREET SOUTH","positionlat":53.3423,"positionlong":-6.28766,"last_update":1710187535000,"available_bikes":30,"available_bike_stands":8,"status":"OPEN"},{"number":77,"address":"Wolfe Tone Street","banking":0,"bikestands":29,"name":"WOLFE TONE STREET","positionlat":53.3489,"positionlong":-6.26746,"last_update":1710187631000,"available_bikes":8,"available_bike_stands":21,"status":"OPEN"},{"number":78,"address":"Mater Hospital","banking":0,"bikestands":40,"name":"MATER HOSPITAL","positionlat":53.36,"positionlong":-6.26483,"last_update":1710187618000,"available_bikes":3,"available_bike_stands":37,"status":"OPEN"},{"number":79,"address":"Eccles Street East","banking":0,"bikestands":27,"name":"ECCLES STREET EAST","positionlat":53.3581,"positionlong":-6.2656,"last_update":1710187081000,"available_bikes":0,"available_bike_stands":27,"status":"OPEN"},{"number":80,"address":"St James Hospital (Luas)","banking":0,"bikestands":40,"name":"ST JAMES HOSPITAL (LUAS)","positionlat":53.3414,"positionlong":-6.29295,"last_update":1710187178000,"available_bikes":32,"available_bike_stands":8,"status":"OPEN"},{"number":82,"address":"Mount Brown","banking":0,"bikestands":22,"name":"MOUNT BROWN","positionlat":53.3416,"positionlong":-6.29719,"last_update":1710187561000,"available_bikes":21,"available_bike_stands":1,"status":"OPEN"},{"number":83,"address":"Emmet Road","banking":0,"bikestands":40,"name":"EMMET ROAD","positionlat":53.3407,"positionlong":-6.30819,"last_update":1710187668000,"available_bikes":31,"available_bike_stands":8,"status":"OPEN"},{"number":84,"address":"Brookfield Road","banking":0,"bikestands":30,"name":"BROOKFIELD ROAD","positionlat":53.339,"positionlong":-6.30022,"last_update":1710187126000,"available_bikes":19,"available_bike_stands":10,"status":"OPEN"},{"number":85,"address":"Rothe Abbey","banking":0,"bikestands":35,"name":"ROTHE ABBEY","positionlat":53.3388,"positionlong":-6.30395,"last_update":1710187442000,"available_bikes":29,"available_bike_stands":6,"status":"OPEN"},{"number":86,"address":"Parkgate Street","banking":0,"bikestands":38,"name":"PARKGATE STREET","positionlat":53.348,"positionlong":-6.2918,"last_update":1710187598000,"available_bikes":27,"available_bike_stands":11,"status":"OPEN"},{"number":87,"address":"Collins Barracks Museum","banking":0,"bikestands":38,"name":"COLLINS BARRACKS MUSEUM","positionlat":53.3475,"positionlong":-6.28525,"last_update":1710187622000,"available_bikes":23,"available_bike_stands":14,"status":"OPEN"},{"number":88,"address":"Blackhall Place","banking":0,"bikestands":30,"name":"BLACKHALL PLACE","positionlat":53.3488,"positionlong":-6.28164,"last_update":1710187627000,"available_bikes":28,"available_bike_stands":2,"status":"OPEN"},{"number":89,"address":"Fitzwilliam Square East","banking":0,"bikestands":40,"name":"FITZWILLIAM SQUARE EAST","positionlat":53.3352,"positionlong":-6.2509,"last_update":1710187234000,"available_bikes":0,"available_bike_stands":40,"status":"OPEN"},{"number":90,"address":"Benson Street","banking":0,"bikestands":40,"name":"BENSON STREET","positionlat":53.3442,"positionlong":-6.23345,"last_update":1710187418000,"available_bikes":2,"available_bike_stands":38,"status":"OPEN"},{"number":91,"address":"South Dock Road","banking":0,"bikestands":30,"name":"SOUTH DOCK ROAD","positionlat":53.3418,"positionlong":-6.23129,"last_update":1710187656000,"available_bikes":19,"available_bike_stands":11,"status":"OPEN"},{"number":92,"address":"Heuston Bridge (North)","banking":0,"bikestands":40,"name":"HEUSTON BRIDGE (NORTH)","positionlat":53.3478,"positionlong":-6.29243,"last_update":1710187627000,"available_bikes":37,"available_bike_stands":3,"status":"OPEN"},{"number":93,"address":"Heuston Station (Central)","banking":0,"bikestands":40,"name":"HEUSTON STATION (CENTRAL)","positionlat":53.3466,"positionlong":-6.29692,"last_update":1710187647000,"available_bikes":40,"available_bike_stands":0,"status":"OPEN"},{"number":94,"address":"Heuston Station (Car Park)","banking":0,"bikestands":40,"name":"HEUSTON STATION (CAR PARK)","positionlat":53.347,"positionlong":-6.2978,"last_update":1710187078000,"available_bikes":35,"available_bike_stands":5,"status":"OPEN"},{"number":95,"address":"Royal Hospital","banking":0,"bikestands":40,"name":"ROYAL HOSPITAL","positionlat":53.3439,"positionlong":-6.29706,"last_update":1710187577000,"available_bikes":21,"available_bike_stands":19,"status":"OPEN"},{"number":96,"address":"Kilmainham Lane","banking":0,"bikestands":30,"name":"KILMAINHAM LANE","positionlat":53.3418,"positionlong":-6.30509,"last_update":1710187489000,"available_bikes":13,"available_bike_stands":17,"status":"OPEN"},{"number":97,"address":"Kilmainham Gaol","banking":0,"bikestands":40,"name":"KILMAINHAM GAOL","positionlat":53.3421,"positionlong":-6.31002,"last_update":1710187627000,"available_bikes":21,"available_bike_stands":19,"status":"OPEN"},{"number":98,"address":"Frederick Street South","banking":0,"bikestands":40,"name":"FREDERICK STREET SOUTH","positionlat":53.3415,"positionlong":-6.25685,"last_update":1710187464000,"available_bikes":19,"available_bike_stands":21,"status":"OPEN"},{"number":99,"address":"City Quay","banking":0,"bikestands":30,"name":"CITY QUAY","positionlat":53.3466,"positionlong":-6.24615,"last_update":1710187668000,"available_bikes":13,"available_bike_stands":17,"status":"OPEN"},{"number":100,"address":"Heuston Bridge (South)","banking":0,"bikestands":25,"name":"HEUSTON BRIDGE (SOUTH)","positionlat":53.3471,"positionlong":-6.29204,"last_update":1710187189000,"available_bikes":21,"available_bike_stands":4,"status":"OPEN"},{"number":101,"address":"King Street North","banking":0,"bikestands":30,"name":"KING STREET NORTH","positionlat":53.3503,"positionlong":-6.27351,"last_update":1710187549000,"available_bikes":1,"available_bike_stands":29,"status":"OPEN"},{"number":102,"address":"Western Way","banking":0,"bikestands":40,"name":"WESTERN WAY","positionlat":53.3549,"positionlong":-6.26942,"last_update":1710187196000,"available_bikes":17,"available_bike_stands":23,"status":"OPEN"},{"number":103,"address":"Grangegorman Lower (South)","banking":0,"bikestands":40,"name":"GRANGEGORMAN LOWER (SOUTH)","positionlat":53.3547,"positionlong":-6.27868,"last_update":1710187614000,"available_bikes":0,"available_bike_stands":40,"status":"OPEN"},{"number":104,"address":"Grangegorman Lower (Central)","banking":0,"bikestands":40,"name":"GRANGEGORMAN LOWER (CENTRAL)","positionlat":53.3552,"positionlong":-6.27842,"last_update":1710187108000,"available_bikes":0,"available_bike_stands":40,"status":"OPEN"},{"number":105,"address":"Grangegorman Lower (North)","banking":0,"bikestands":36,"name":"GRANGEGORMAN LOWER (NORTH)","positionlat":53.356,"positionlong":-6.27838,"last_update":1710187100000,"available_bikes":0,"available_bike_stands":36,"status":"OPEN"},{"number":106,"address":"Rathdown Road","banking":0,"bikestands":40,"name":"RATHDOWN ROAD","positionlat":53.3589,"positionlong":-6.28034,"last_update":1710187528000,"available_bikes":22,"available_bike_stands":18,"status":"OPEN"},{"number":107,"address":"Charleville Road","banking":0,"bikestands":40,"name":"CHARLEVILLE ROAD","positionlat":53.3592,"positionlong":-6.28187,"last_update":1710187632000,"available_bikes":17,"available_bike_stands":23,"status":"OPEN"},{"number":108,"address":"Avondale Road","banking":0,"bikestands":35,"name":"AVONDALE ROAD","positionlat":53.3594,"positionlong":-6.27614,"last_update":1710187596000,"available_bikes":18,"available_bike_stands":17,"status":"OPEN"},{"number":109,"address":"Buckingham Street Lower","banking":0,"bikestands":29,"name":"BUCKINGHAM STREET LOWER","positionlat":53.3533,"positionlong":-6.24932,"last_update":1710187088000,"available_bikes":17,"available_bike_stands":12,"status":"OPEN"},{"number":110,"address":"Phibsborough Road","banking":0,"bikestands":40,"name":"PHIBSBOROUGH ROAD","positionlat":53.3563,"positionlong":-6.27372,"last_update":1710187130000,"available_bikes":21,"available_bike_stands":19,"status":"OPEN"},{"number":111,"address":"Mountjoy Square East","banking":0,"bikestands":40,"name":"MOUNTJOY SQUARE EAST","positionlat":53.3567,"positionlong":-6.25636,"last_update":1710187514000,"available_bikes":5,"available_bike_stands":35,"status":"OPEN"},{"number":112,"address":"North Circular Road (O'Connell's)","banking":0,"bikestands":30,"name":"NORTH CIRCULAR ROAD (O'CONNELL'S)","positionlat":53.3578,"positionlong":-6.25156,"last_update":1710187599000,"available_bikes":27,"available_bike_stands":3,"status":"OPEN"},{"number":113,"address":"Merrion Square South","banking":0,"bikestands":40,"name":"MERRION SQUARE SOUTH","positionlat":53.3386,"positionlong":-6.24861,"last_update":1710187631000,"available_bikes":0,"available_bike_stands":40,"status":"OPEN"},{"number":114,"address":"Wilton Terrace (Park)","banking":0,"bikestands":40,"name":"WILTON TERRACE (PARK)","positionlat":53.3337,"positionlong":-6.24834,"last_update":1710187167000,"available_bikes":0,"available_bike_stands":40,"status":"OPEN"},{"number":115,"address":"Killarney Street","banking":0,"bikestands":30,"name":"KILLARNEY STREET","positionlat":53.3548,"positionlong":-6.24758,"last_update":1710187391000,"available_bikes":20,"available_bike_stands":10,"status":"OPEN"},{"number":116,"address":"Broadstone","banking":0,"bikestands":30,"name":"BROADSTONE","positionlat":53.3547,"positionlong":-6.27231,"last_update":1710187514000,"available_bikes":18,"available_bike_stands":12,"status":"OPEN"},{"number":117,"address":"Hanover Quay East","banking":0,"bikestands":40,"name":"HANOVER QUAY EAST","positionlat":53.3437,"positionlong":-6.23175,"last_update":1710187557000,"available_bikes":2,"available_bike_stands":38,"status":"OPEN"}]